Split 1
[{"id": "79_tilla", "name": "79 Tilla", "displayName": "79 Tilla", "city": "Agartala", "state": "Tripura", "country": "India", "pincode": "799006", "latitude": 23.855, "longitude": 91.288, "active": true}, {"id": "a_d_nagar_police_line", "name": "A D Nagar Police Line", "displayName": "A D Nagar Police Line", "city": "Agartala", "state": "Tripura", "country": "India", "pincode": "799003", "latitude": 23.815, "longitude": 91.275, "active": true}, {"id": "ad_nagar", "name": "AD Nagar", "displayName": "AD Nagar", "city": "Agartala", "state": "Tripura", "country": "India", "pincode": "799003", "latitude": 23.815, "longitude": 91.275, "active": true}, {"id": "abhoynagar", "name": "Abhoynagar", "displayName": "Abhoynagar", "city": "Agartala", "state": "Tripura", "country": "India", "pincode": "799005", "latitude": 23.845, "longitude": 91.285, "active": true}, {"id": "advisor_chowmuhani", "name": "Advisor Chowmuhani", "displayName": "Advisor Chowmuhani", "city": "Agartala", "state": "Tripura", "country": "India", "pincode": "799001", "latitude": 23.84, "longitude": 91.284, "active": true}, {"id": "agartala_city_centre", "name": "Agartala City Centre", "displayName": "Agartala City Centre", "city": "Agartala", "state": "Tripura", "country": "India", "pincode": "799001", "latitude": 23.831, "longitude": 91.286, "active": true}, {"id": "agartala_railway_station_area", "name": "Agartala Railway Station Area", "displayName": "Agartala Railway Station Area", "city": "Agartala", "state": "Tripura", "country": "India", "pincode": "799003", "latitude": 23.795, "longitude": 91.276, "active": true}, {"id": "airport_area", "name": "Airport Area", "displayName": "Airport Area", "city": "Agartala", "state": "Tripura", "country": "India", "pincode": "799009", "latitude": 23.886, "longitude": 91.24, "active": true}, {"id": "akhaura_check_post", "name": "Akhaura Check Post", "displayName": "Akhaura Check Post", "city": "Agartala", "state": "Tripura", "country": "India", "pincode": "799002", "latitude": 23.835, "longitude": 91.265, "active": true}, {"id": "akhura_road", "name": "Akhura Road", "displayName": "Akhura Road", "city": "Agartala", "state": "Tripura", "country": "India", "pincode": "799001", "latitude": 23.833, "longitude": 91.275, "active": true}, {"id": "amarpur", "name": "Amarpur", "displayName": "Amarpur", "city": "Agartala", "state": "Tripura", "country": "India", "pincode": "799101", "latitude": 23.53, "longitude": 91.64, "active": true}, {"id": "ambassa", "name": "Ambassa", "displayName": "Ambassa", "city": "Agartala", "state": "Tripura", "country": "India", "pincode": "799289", "latitude": 23.92, "longitude": 91.85, "active": true}, {"id": "amtali", "name": "Amtali", "displayName": "Amtali", "city": "Agartala", "state": "Tripura", "country": "India", "pincode": "799130", "latitude": 23.785, "longitude": 91.275, "active": true}, {"id": "anandanagar", "name": "Anandanagar", "displayName": "Anandanagar", "city": "Agartala", "state": "Tripura", "country": "India", "pincode": "799004", "latitude": 23.82, "longitude": 91.298, "active": true}, {"id": "aralia", "name": "Aralia", "displayName": "Aralia", "city": "Agartala", "state": "Tripura", "country": "India", "pincode": "799004", "latitude": 23.82, "longitude": 91.295, "active": true}, {"id": "arogya_niketan_area", "name": "Arogya Niketan Area", "displayName": "Arogya Niketan Area", "city": "Agartala", "state": "Tripura", "country": "India", "pincode": "799001", "latitude": 23.83, "longitude": 91.28, "active": true}, {"id": "arundhatinagar_industrial_estate", "name": "Arundhatinagar Industrial Estate", "displayName": "Arundhatinagar Industrial Estate", "city": "Agartala", "state": "Tripura", "country": "India", "pincode": "799003", "latitude": 23.812, "longitude": 91.278, "active": true}, {"id": "arundhutinagar", "name": "Arundhutinagar", "displayName": "Arundhutinagar", "city": "Agartala", "state": "Tripura", "country": "India", "pincode": "799003", "latitude": 23.81, "longitude": 91.278, "active": true}, {"id": "astabal", "name": "Astabal", "displayName": "Astabal", "city": "Agartala", "state": "Tripura", "country": "India", "pincode": "799001", "latitude": 23.836, "longitude": 91.282, "active": true}, {"id": "badharghat", "name": "Badharghat", "displayName": "Badharghat", "city": "Agartala", "state": "Tripura", "country": "India", "pincode": "799003", "latitude": 23.815, "longitude": 91.275, "active": true}, {"id": "baldakhal", "name": "Baldakhal", "displayName": "Baldakhal", "city": "Agartala", "state": "Tripura", "country": "India", "pincode": "799008", "latitude": 23.836, "longitude": 91.31, "active": true}, {"id": "bamutia", "name": "Bamutia", "displayName": "Bamutia", "city": "Agartala", "state": "Tripura", "country": "India", "pincode": "799211", "latitude": 23.94, "longitude": 91.3, "active": true}, {"id": "banamalipur", "name": "Banamalipur", "displayName": "Banamalipur", "city": "Agartala", "state": "Tripura", "country": "India", "pincode": "799001", "latitude": 23.835, "longitude": 91.285, "active": true}, {"id": "bardowali", "name": "Bardowali", "displayName": "Bardowali", "city": "Agartala", "state": "Tripura", "country": "India", "pincode": "799003", "latitude": 23.82, "longitude": 91.275, "active": true}, {"id": "battala", "name": "Battala", "displayName": "Battala", "city": "Agartala", "state": "Tripura", "country": "India", "pincode": "799001", "latitude": 23.825, "longitude": 91.275, "active": true}, {"id": "belonia", "name": "Belonia", "displayName": "Belonia", "city": "Agartala", "state": "Tripura", "country": "India", "pincode": "799155", "latitude": 23.25, "longitude": 91.46, "active": true}, {"id": "bhagat_singh_mini_stadium_area", "name": "Bhagat Singh Mini Stadium Area", "displayName": "Bhagat Singh Mini Stadium Area", "city": "Agartala", "state": "Tripura", "country": "India", "pincode": "799006", "latitude": 23.855, "longitude": 91.292, "active": true}, {"id": "bhati_abhoynagar", "name": "Bhati Abhoynagar", "displayName": "Bhati Abhoynagar", "city": "Agartala", "state": "Tripura", "country": "India", "pincode": "799005", "latitude": 23.842, "longitude": 91.275, "active": true}, {"id": "bhattapukur", "name": "Bhattapukur", "displayName": "Bhattapukur", "city": "Agartala", "state": "Tripura", "country": "India", "pincode": "799003", "latitude": 23.81, "longitude": 91.272, "active": true}, {"id": "bholagiri", "name": "Bholagiri", "displayName": "Bholagiri", "city": "Agartala", "state": "Tripura", "country": "India", "pincode": "799006", "latitude": 23.85, "longitude": 91.282, "active": true}, {"id": "bidurkarta_chowmuhani", "name": "Bidurkarta Chowmuhani", "displayName": "Bidurkarta Chowmuhani", "city": "Agartala", "state": "Tripura", "country": "India", "pincode": "799001", "latitude": 23.831, "longitude": 91.287, "active": true}, {"id": "bikramnagar", "name": "Bikramnagar", "displayName": "Bikramnagar", "city": "Agartala", "state": "Tripura", "country": "India", "pincode": "799003", "latitude": 23.8, "longitude": 91.275, "active": true}, {"id": "bishalgarh", "name": "Bishalgarh", "displayName": "Bishalgarh", "city": "Agartala", "state": "Tripura", "country": "India", "pincode": "799102", "latitude": 23.68, "longitude": 91.26, "active": true}]
Split 2
[{"id": "bodhjungnagar", "name": "Bodhjungnagar", "displayName": "Bodhjungnagar", "city": "Agartala", "state": "Tripura", "country": "India", "pincode": "799008", "latitude": 23.86, "longitude": 91.34, "active": true}, {"id": "bordowali", "name": "Bordowali", "displayName": "Bordowali", "city": "Agartala", "state": "Tripura", "country": "India", "pincode": "799003", "latitude": 23.818, "longitude": 91.276, "active": true}, {"id": "bordowali_school_area", "name": "Bordowali School Area", "displayName": "Bordowali School Area", "city": "Agartala", "state": "Tripura", "country": "India", "pincode": "799003", "latitude": 23.818, "longitude": 91.276, "active": true}, {"id": "brajapur", "name": "Brajapur", "displayName": "Brajapur", "city": "Agartala", "state": "Tripura", "country": "India", "pincode": "799102", "latitude": 23.69, "longitude": 91.27, "active": true}, {"id": "buddha_mandir_area", "name": "Buddha Mandir Area", "displayName": "Buddha Mandir Area", "city": "Agartala", "state": "Tripura", "country": "India", "pincode": "799006", "latitude": 23.848, "longitude": 91.284, "active": true}, {"id": "capital_complex", "name": "Capital Complex", "displayName": "Capital Complex", "city": "Agartala", "state": "Tripura", "country": "India", "pincode": "799006", "latitude": 23.856, "longitude": 91.284, "active": true}, {"id": "central_road", "name": "Central Road", "displayName": "Central Road", "city": "Agartala", "state": "Tripura", "country": "India", "pincode": "799001", "latitude": 23.832, "longitude": 91.28, "active": true}, {"id": "champamura", "name": "Champamura", "displayName": "Champamura", "city": "Agartala", "state": "Tripura", "country": "India", "pincode": "799008", "latitude": 23.842, "longitude": 91.32, "active": true}, {"id": "chandrapur", "name": "Chandrapur", "displayName": "Chandrapur", "city": "Agartala", "state": "Tripura", "country": "India", "pincode": "799008", "latitude": 23.835, "longitude": 91.305, "active": true}, {"id": "chatra_sangha", "name": "Chatra Sangha", "displayName": "Chatra Sangha", "city": "Agartala", "state": "Tripura", "country": "India", "pincode": "799001", "latitude": 23.835, "longitude": 91.28, "active": true}, {"id": "childrens_park_area", "name": "Childrens Park Area", "displayName": "Childrens Park Area", "city": "Agartala", "state": "Tripura", "country": "India", "pincode": "799001", "latitude": 23.834, "longitude": 91.282, "active": true}, {"id": "college_tilla", "name": "College Tilla", "displayName": "College Tilla", "city": "Agartala", "state": "Tripura", "country": "India", "pincode": "799004", "latitude": 23.825, "longitude": 91.295, "active": true}, {"id": "colonel_chowmuhani", "name": "Colonel Chowmuhani", "displayName": "Colonel Chowmuhani", "city": "Agartala", "state": "Tripura", "country": "India", "pincode": "799001", "latitude": 23.83, "longitude": 91.28, "active": true}, {"id": "dasamighat", "name": "Dasamighat", "displayName": "Dasamighat", "city": "Agartala", "state": "Tripura", "country": "India", "pincode": "799001", "latitude": 23.828, "longitude": 91.27, "active": true}, {"id": "dhaleswar", "name": "Dhaleswar", "displayName": "Dhaleswar", "city": "Agartala", "state": "Tripura", "country": "India", "pincode": "799007", "latitude": 23.835, "longitude": 91.295, "active": true}, {"id": "dharmanagar", "name": "Dharmanagar", "displayName": "Dharmanagar", "city": "Agartala", "state": "Tripura", "country": "India", "pincode": "799250", "latitude": 24.375, "longitude": 92.165, "active": true}, {"id": "drop_gate", "name": "Drop Gate", "displayName": "Drop Gate", "city": "Agartala", "state": "Tripura", "country": "India", "pincode": "799003", "latitude": 23.805, "longitude": 91.275, "active": true}, {"id": "durjoynagar", "name": "Durjoynagar", "displayName": "Durjoynagar", "city": "Agartala", "state": "Tripura", "country": "India", "pincode": "799009", "latitude": 23.875, "longitude": 91.255, "active": true}, {"id": "dutta_para", "name": "Dutta Para", "displayName": "Dutta Para", "city": "Agartala", "state": "Tripura", "country": "India", "pincode": "799003", "latitude": 23.815, "longitude": 91.28, "active": true}, {"id": "fatatikroy", "name": "Fatatikroy", "displayName": "Fatatikroy", "city": "Agartala", "state": "Tripura", "country": "India", "pincode": "799210", "latitude": 23.9, "longitude": 91.3, "active": true}, {"id": "fire_brigade_chowmuhani", "name": "Fire Brigade Chowmuhani", "displayName": "Fire Brigade Chowmuhani", "city": "Agartala", "state": "Tripura", "country": "India", "pincode": "799001", "latitude": 23.83, "longitude": 91.28, "active": true}, {"id": "gb_bazar", "name": "GB Bazar", "displayName": "GB Bazar", "city": "Agartala", "state": "Tripura", "country": "India", "pincode": "799006", "latitude": 23.855, "longitude": 91.285, "active": true}, {"id": "gakulnagar", "name": "Gakulnagar", "displayName": "Gakulnagar", "city": "Agartala", "state": "Tripura", "country": "India", "pincode": "799102", "latitude": 23.695, "longitude": 91.265, "active": true}, {"id": "gangail_road", "name": "Gangail Road", "displayName": "Gangail Road", "city": "Agartala", "state": "Tripura", "country": "India", "pincode": "799001", "latitude": 23.828, "longitude": 91.28, "active": true}, {"id": "gokulnagar", "name": "Gokulnagar", "displayName": "Gokulnagar", "city": "Agartala", "state": "Tripura", "country": "India", "pincode": "799102", "latitude": 23.7, "longitude": 91.265, "active": true}, {"id": "golf_course", "name": "Golf Course", "displayName": "Golf Course", "city": "Agartala", "state": "Tripura", "country": "India", "pincode": "799006", "latitude": 23.855, "longitude": 91.28, "active": true}, {"id": "gorkhabasti", "name": "Gorkhabasti", "displayName": "Gorkhabasti", "city": "Agartala", "state": "Tripura", "country": "India", "pincode": "799006", "latitude": 23.85, "longitude": 91.285, "active": true}, {"id": "govind_ballabh_hospital_area", "name": "Govind Ballabh Hospital Area", "displayName": "Govind Ballabh Hospital Area", "city": "Agartala", "state": "Tripura", "country": "India", "pincode": "799006", "latitude": 23.856, "longitude": 91.287, "active": true}, {"id": "gurkhabasti", "name": "Gurkhabasti", "displayName": "Gurkhabasti", "city": "Agartala", "state": "Tripura", "country": "India", "pincode": "799006", "latitude": 23.852, "longitude": 91.282, "active": true}, {"id": "gurkhabasti_jame_masjid_area", "name": "Gurkhabasti Jame Masjid Area", "displayName": "Gurkhabasti Jame Masjid Area", "city": "Agartala", "state": "Tripura", "country": "India", "pincode": "799006", "latitude": 23.851, "longitude": 91.283, "active": true}, {"id": "hapania", "name": "Hapania", "displayName": "Hapania", "city": "Agartala", "state": "Tripura", "country": "India", "pincode": "799014", "latitude": 23.78, "longitude": 91.275, "active": true}, {"id": "hari_ganga_basak_road", "name": "Hari Ganga Basak Road", "displayName": "Hari Ganga Basak Road", "city": "Agartala", "state": "Tripura", "country": "India", "pincode": "799001", "latitude": 23.831, "longitude": 91.282, "active": true}, {"id": "heritage_park_area", "name": "Heritage Park Area", "displayName": "Heritage Park Area", "city": "Agartala", "state": "Tripura", "country": "India", "pincode": "799006", "latitude": 23.852, "longitude": 91.286, "active": true}]
Split 3
[{"id": "iti_road", "name": "ITI Road", "displayName": "ITI Road", "city": "Agartala", "state": "Tripura", "country": "India", "pincode": "799006", "latitude": 23.858, "longitude": 91.292, "active": true}, {"id": "igm_hospital_area", "name": "Igm Hospital Area", "displayName": "Igm Hospital Area", "city": "Agartala", "state": "Tripura", "country": "India", "pincode": "799001", "latitude": 23.831, "longitude": 91.28, "active": true}, {"id": "indranagar", "name": "Indranagar", "displayName": "Indranagar", "city": "Agartala", "state": "Tripura", "country": "India", "pincode": "799006", "latitude": 23.85, "longitude": 91.29, "active": true}, {"id": "indranagar_iti", "name": "Indranagar ITI", "displayName": "Indranagar ITI", "city": "Agartala", "state": "Tripura", "country": "India", "pincode": "799006", "latitude": 23.852, "longitude": 91.294, "active": true}, {"id": "jackson_gate", "name": "Jackson Gate", "displayName": "Jackson Gate", "city": "Agartala", "state": "Tripura", "country": "India", "pincode": "799001", "latitude": 23.832, "longitude": 91.282, "active": true}, {"id": "jirania", "name": "Jirania", "displayName": "Jirania", "city": "Agartala", "state": "Tripura", "country": "India", "pincode": "799045", "latitude": 23.82, "longitude": 91.38, "active": true}, {"id": "jogendranagar", "name": "Jogendranagar", "displayName": "Jogendranagar", "city": "Agartala", "state": "Tripura", "country": "India", "pincode": "799004", "latitude": 23.828, "longitude": 91.3, "active": true}, {"id": "jolaibari", "name": "Jolaibari", "displayName": "Jolaibari", "city": "Agartala", "state": "Tripura", "country": "India", "pincode": "799141", "latitude": 23.235, "longitude": 91.56, "active": true}, {"id": "joynagar", "name": "Joynagar", "displayName": "Joynagar", "city": "Agartala", "state": "Tripura", "country": "India", "pincode": "799001", "latitude": 23.83, "longitude": 91.275, "active": true}, {"id": "kailashahar", "name": "Kailashahar", "displayName": "Kailashahar", "city": "Agartala", "state": "Tripura", "country": "India", "pincode": "799277", "latitude": 24.32, "longitude": 92.01, "active": true}, {"id": "kamalghat", "name": "Kamalghat", "displayName": "Kamalghat", "city": "Agartala", "state": "Tripura", "country": "India", "pincode": "799210", "latitude": 23.91, "longitude": 91.31, "active": true}, {"id": "kamalpur", "name": "Kamalpur", "displayName": "Kamalpur", "city": "Agartala", "state": "Tripura", "country": "India", "pincode": "799285", "latitude": 24.195, "longitude": 91.83, "active": true}, {"id": "kaman_chowmuhani", "name": "Kaman Chowmuhani", "displayName": "Kaman Chowmuhani", "city": "Agartala", "state": "Tripura", "country": "India", "pincode": "799001", "latitude": 23.832, "longitude": 91.285, "active": true}, {"id": "khayerpur", "name": "Khayerpur", "displayName": "Khayerpur", "city": "Agartala", "state": "Tripura", "country": "India", "pincode": "799008", "latitude": 23.84, "longitude": 91.315, "active": true}, {"id": "khejurbagan", "name": "Khejurbagan", "displayName": "Khejurbagan", "city": "Agartala", "state": "Tripura", "country": "India", "pincode": "799006", "latitude": 23.86, "longitude": 91.285, "active": true}, {"id": "khowai", "name": "Khowai", "displayName": "Khowai", "city": "Agartala", "state": "Tripura", "country": "India", "pincode": "799201", "latitude": 24.065, "longitude": 91.605, "active": true}, {"id": "krishnanagar", "name": "Krishnanagar", "displayName": "Krishnanagar", "city": "Agartala", "state": "Tripura", "country": "India", "pincode": "799001", "latitude": 23.84, "longitude": 91.28, "active": true}, {"id": "kunjaban", "name": "Kunjaban", "displayName": "Kunjaban", "city": "Agartala", "state": "Tripura", "country": "India", "pincode": "799006", "latitude": 23.85, "longitude": 91.28, "active": true}, {"id": "lake_chowmuhani", "name": "Lake Chowmuhani", "displayName": "Lake Chowmuhani", "city": "Agartala", "state": "Tripura", "country": "India", "pincode": "799001", "latitude": 23.835, "longitude": 91.275, "active": true}, {"id": "lanka_murah", "name": "Lanka Murah", "displayName": "Lanka Murah", "city": "Agartala", "state": "Tripura", "country": "India", "pincode": "799002", "latitude": 23.848, "longitude": 91.268, "active": true}, {"id": "lembucherra", "name": "Lembucherra", "displayName": "Lembucherra", "city": "Agartala", "state": "Tripura", "country": "India", "pincode": "799210", "latitude": 23.89, "longitude": 91.29, "active": true}, {"id": "mbb_college_area", "name": "MBB College Area", "displayName": "MBB College Area", "city": "Agartala", "state": "Tripura", "country": "India", "pincode": "799004", "latitude": 23.824, "longitude": 91.292, "active": true}, {"id": "madhupur", "name": "Madhupur", "displayName": "Madhupur", "city": "Agartala", "state": "Tripura", "country": "India", "pincode": "799130", "latitude": 23.73, "longitude": 91.28, "active": true}, {"id": "madhya_banamalipur", "name": "Madhya Banamalipur", "displayName": "Madhya Banamalipur", "city": "Agartala", "state": "Tripura", "country": "India", "pincode": "799001", "latitude": 23.836, "longitude": 91.286, "active": true}, {"id": "malancha_niwas", "name": "Malancha Niwas", "displayName": "Malancha Niwas", "city": "Agartala", "state": "Tripura", "country": "India", "pincode": "799006", "latitude": 23.854, "longitude": 91.281, "active": true}, {"id": "mandwi", "name": "Mandwi", "displayName": "Mandwi", "city": "Agartala", "state": "Tripura", "country": "India", "pincode": "799045", "latitude": 23.83, "longitude": 91.4, "active": true}, {"id": "mastri_para", "name": "Mastri Para", "displayName": "Mastri Para", "city": "Agartala", "state": "Tripura", "country": "India", "pincode": "799001", "latitude": 23.83, "longitude": 91.278, "active": true}, {"id": "math_chowmuhani", "name": "Math Chowmuhani", "displayName": "Math Chowmuhani", "city": "Agartala", "state": "Tripura", "country": "India", "pincode": "799001", "latitude": 23.83, "longitude": 91.285, "active": true}, {"id": "mayer_bazar", "name": "Mayer Bazar", "displayName": "Mayer Bazar", "city": "Agartala", "state": "Tripura", "country": "India", "pincode": "799008", "latitude": 23.84, "longitude": 91.315, "active": true}, {"id": "melaghar", "name": "Melaghar", "displayName": "Melaghar", "city": "Agartala", "state": "Tripura", "country": "India", "pincode": "799115", "latitude": 23.485, "longitude": 91.325, "active": true}, {"id": "melarmath", "name": "Melarmath", "displayName": "Melarmath", "city": "Agartala", "state": "Tripura", "country": "India", "pincode": "799001", "latitude": 23.832, "longitude": 91.278, "active": true}, {"id": "milan_chakra", "name": "Milan Chakra", "displayName": "Milan Chakra", "city": "Agartala", "state": "Tripura", "country": "India", "pincode": "799003", "latitude": 23.805, "longitude": 91.278, "active": true}, {"id": "milan_sangha", "name": "Milan Sangha", "displayName": "Milan Sangha", "city": "Agartala", "state": "Tripura", "country": "India", "pincode": "799006", "latitude": 23.85, "longitude": 91.288, "active": true}, {"id": "mohanpur", "name": "Mohanpur", "displayName": "Mohanpur", "city": "Agartala", "state": "Tripura", "country": "India", "pincode": "799211", "latitude": 23.96, "longitude": 91.35, "active": true}]
